{"config": {"view": {"continuousWidth": 300, "continuousHeight": 300}}, "layer": [{"data": {"url": "https://cdn.jsdelivr.net/npm/vega-datasets@v1.29.0/data/us-10m.json", "format": {"feature": "states", "type": "topojson"}}, "mark": {"type": "geoshape", "fill": "#f0f0f0", "stroke": "black"}, "projection": {"type": "albersUsa"}}, {"data": {"name": "data-09457a287ba75475c2d0355d9a96a71a"}, "mark": {"type": "circle", "opacity": 0.6, "size": 100}, "encoding": {"color": {"value": "gray"}, "latitude": {"field": "latitude", "type": "quantitative"}, "longitude": {"field": "longitude", "type": "quantitative"}, "tooltip": [{"field": "name", "type": "nominal"}, {"field": "id", "type": "nominal"}]}}, {"data": {"name": "data-0bd75f5efa3f835674104223ffc8e143"}, "mark": {"type": "circle", "opacity": 0.9, "size": 300, "stroke": "black", "strokeWidth": 2}, "encoding": {"color": {"field": "accuracy", "scale": {"domain": [0.4, 1.0], "scheme": "viridis"}, "title": "XGBoost Accuracy", "type": "quantitative"}, "latitude": {"field": "latitude", "type": "quantitative"}, "longitude": {"field": "longitude", "type": "quantitative"}, "tooltip": [{"field": "name", "title": "City", "type": "nominal"}, {"field": "accuracy", "format": ".3f", "title": "XGBoost Accuracy", "type": "quantitative"}, {"field": "samples", "title": "Test Samples", "type": "quantitative"}, {"field": "longitude", "format": ".2f", "title": "Longitude", "type": "quantitative"}, {"field": "latitude", "format": ".2f", "title": "Latitude", "type": "quantitative"}]}}], "height": 500, "resolve": {"scale": {"color": "independent"}}, "title": "XGBoost Model Performance: 40 Training Cities (Gray) + 10 Test Cities (Colored by Accuracy)", "width": 800, "$schema": "https://vega.github.io/schema/vega-lite/v5.20.1.json", "datasets": {"data-09457a287ba75475c2d0355d9a96a71a": [{"id": "KSLJ0", "name": "Camp Shelby / McLaurin", "country": "US", "region": "MS", "wmo": null, "icao": "KSLJ", "latitude": 31.1738, "longitude": -89.1912, "elevation": 85.0, "timezone": "America/Chicago", "hourly_start": "2011-05-12T00:00:00", "hourly_end": "2020-09-08T00:00:00", "daily_start": "2011-05-13T00:00:00", "daily_end": "2011-05-13T00:00:00", "monthly_start": "", "monthly_end": "", "distance": 1320988.9035724755}, {"id": "KOWA0", "name": "Owatonna / Clinton Falls", "country": "US", "region": "MN", "wmo": null, "icao": "KOWA", "latitude": 44.123, "longitude": -93.2588, "elevation": 349.0, "timezone": "America/Chicago", "hourly_start": "2006-01-01T00:00:00", "hourly_end": "2025-11-22T00:00:00", "daily_start": "2006-01-01T00:00:00", "daily_end": "2022-04-24T00:00:00", "monthly_start": "2006-01-01T00:00:00", "monthly_end": "2022-01-01T00:00:00", "distance": 1163752.517434065}, {"id": "KSRC0", "name": "Searcy / Gum Springs (Historical)", "country": "US", "region": "AR", "wmo": null, "icao": "KSRC", "latitude": 35.2106, "longitude": -91.7375, "elevation": 81.0, "timezone": "America/Chicago", "hourly_start": "2006-01-01T00:00:00", "hourly_end": "2025-11-22T00:00:00", "daily_start": "2006-08-25T00:00:00", "daily_end": "2022-04-24T00:00:00", "monthly_start": "2008-01-01T00:00:00", "monthly_end": "2021-01-01T00:00:00", "distance": 1182475.0439801582}, {"id": "KSFF0", "name": "Spokane / Yardley", "country": "US", "region": "WA", "wmo": null, "icao": "KSFF", "latitude": 47.6828, "longitude": -117.3226, "elevation": 597.0, "timezone": "America/Los_Angeles", "hourly_start": "2006-01-01T00:00:00", "hourly_end": "2025-11-22T00:00:00", "daily_start": "2006-01-01T00:00:00", "daily_end": "2022-04-24T00:00:00", "monthly_start": "2006-01-01T00:00:00", "monthly_end": "2022-01-01T00:00:00", "distance": 3056890.098744927}, {"id": "KLJF0", "name": "Litchfield / Evergreen Mobile Home Park", "country": "US", "region": "MN", "wmo": null, "icao": "KLJF", "latitude": 45.1, "longitude": -94.5, "elevation": 347.0, "timezone": "America/Chicago", "hourly_start": "2006-01-01T00:00:00", "hourly_end": "2025-11-22T00:00:00", "daily_start": "2006-01-01T00:00:00", "daily_end": "2022-04-24T00:00:00", "monthly_start": "2007-01-01T00:00:00", "monthly_end": "2022-01-01T00:00:00", "distance": 1289909.5455054815}, {"id": "KCNB0", "name": "Canby", "country": "US", "region": "MN", "wmo": null, "icao": "KCNB", "latitude": 44.7295, "longitude": -96.266, "elevation": 364.0, "timezone": "America/Chicago", "hourly_start": "2006-10-18T00:00:00", "hourly_end": "2025-11-22T00:00:00", "daily_start": "2006-10-20T00:00:00", "daily_end": "2022-04-24T00:00:00", "monthly_start": "2009-01-01T00:00:00", "monthly_end": "2022-01-01T00:00:00", "distance": 1411856.9889495343}, {"id": "KXNO0", "name": "North/Auxiliary Airfield", "country": "US", "region": "SC", "wmo": null, "icao": "KXNO", "latitude": 33.6095, "longitude": -81.0812, "elevation": 98.0, "timezone": "America/New_York", "hourly_start": "2007-10-24T00:00:00", "hourly_end": "2025-11-22T00:00:00", "daily_start": "2007-10-25T00:00:00", "daily_end": "2022-04-24T00:00:00", "monthly_start": "2010-01-01T00:00:00", "monthly_end": "2021-01-01T00:00:00", "distance": 765650.2373495742}, {"id": "KAUH0", "name": "Aurora", "country": "US", "region": "NE", "wmo": null, "icao": "KAUH", "latitude": 40.8941, "longitude": -97.9946, "elevation": 550.0, "timezone": "America/Chicago", "hourly_start": "2006-01-01T00:00:00", "hourly_end": "2025-11-22T00:00:00", "daily_start": "2006-01-01T00:00:00", "daily_end": "2022-04-24T00:00:00", "monthly_start": "2007-01-01T00:00:00", "monthly_end": "2022-01-01T00:00:00", "distance": 1516207.9445253264}, {"id": "KDZJ0", "name": "Blairsville / Pleasant Grove", "country": "US", "region": "GA", "wmo": null, "icao": "KDZJ", "latitude": 34.8544, "longitude": -83.9973, "elevation": 582.0, "timezone": "America/New_York", "hourly_start": "2008-01-01T00:00:00", "hourly_end": "2025-11-22T00:00:00", "daily_start": "2008-03-20T00:00:00", "daily_end": "2022-04-24T00:00:00", "monthly_start": "2020-01-01T00:00:00", "monthly_end": "2022-01-01T00:00:00", "distance": 713900.0884750056}, {"id": "KCTZ0", "name": "Clinton / South Clinton Mobile Home Park", "country": "US", "region": "NC", "wmo": null, "icao": "KCTZ", "latitude": 34.9749, "longitude": -78.3656, "elevation": 44.0, "timezone": "America/New_York", "hourly_start": "2006-01-01T00:00:00", "hourly_end": "2025-11-22T00:00:00", "daily_start": "2006-02-23T00:00:00", "daily_end": "2022-04-24T00:00:00", "monthly_start": "2014-01-01T00:00:00", "monthly_end": "2022-01-01T00:00:00", "distance": 624415.5525682172}, {"id": "72562", "name": "North Platte Regional Airport", "country": "US", "region": "NE", "wmo": "72562", "icao": "KLBF", "latitude": 41.1167, "longitude": -100.6667, "elevation": 847.0, "timezone": "America/Chicago", "hourly_start": "1973-01-01T00:00:00", "hourly_end": "2025-11-22T00:00:00", "daily_start": "1948-01-01T00:00:00", "daily_end": "2025-12-05T00:00:00", "monthly_start": "1948-01-01T00:00:00", "monthly_end": "2022-01-01T00:00:00", "distance": 1738043.5932460374}, {"id": "KOWP0", "name": "Sand Springs / Wekiwa", "country": "US", "region": "OK", "wmo": null, "icao": "KOWP", "latitude": 36.1753, "longitude": -96.1518, "elevation": 272.0, "timezone": "America/Chicago", "hourly_start": "2013-08-22T00:00:00", "hourly_end": "2025-11-22T00:00:00", "daily_start": "2013-08-23T00:00:00", "daily_end": "2022-04-24T00:00:00", "monthly_start": "2014-01-01T00:00:00", "monthly_end": "2022-01-01T00:00:00", "distance": 1484710.936618863}, {"id": "72449", "name": "Rosecrans Memorial Airport", "country": "US", "region": "MO", "wmo": "72449", "icao": "KSTJ", "latitude": 39.7667, "longitude": -94.0833, "elevation": 252.0, "timezone": "America/Chicago", "hourly_start": "1973-01-01T00:00:00", "hourly_end": "2025-11-22T00:00:00", "daily_start": "1948-01-01T00:00:00", "daily_end": "2025-12-05T00:00:00", "monthly_start": "1948-01-01T00:00:00", "monthly_end": "2022-01-01T00:00:00", "distance": 1199210.3395142043}, {"id": "72342", "name": "Russelville Municipal Airport", "country": "US", "region": "AR", "wmo": "72342", "icao": "KRUE", "latitude": 35.25, "longitude": -93.1, "elevation": 123.0, "timezone": "America/Chicago", "hourly_start": "2006-01-01T00:00:00", "hourly_end": "2025-11-22T00:00:00", "daily_start": "2006-01-01T00:00:00", "daily_end": "2022-04-25T00:00:00", "monthly_start": "2006-01-01T00:00:00", "monthly_end": "2022-01-01T00:00:00", "distance": 1285441.915265888}, {"id": "KTEB0", "name": "Teterboro", "country": "US", "region": "NJ", "wmo": null, "icao": "KTEB", "latitude": 40.8501, "longitude": -74.0608, "elevation": 3.0, "timezone": "America/New_York", "hourly_start": "1973-01-01T00:00:00", "hourly_end": "2025-11-22T00:00:00", "daily_start": "1973-01-01T00:00:00", "daily_end": "2022-04-24T00:00:00", "monthly_start": "2005-01-01T00:00:00", "monthly_end": "2022-01-01T00:00:00", "distance": 502711.263874338}, {"id": "KDMW0", "name": "Westminster / Pinch Valley Estates", "country": "US", "region": "MD", "wmo": null, "icao": "KDMW", "latitude": 39.6083, "longitude": -77.0077, "elevation": 241.0, "timezone": "America/New_York", "hourly_start": "2011-01-01T00:00:00", "hourly_end": "2025-11-22T00:00:00", "daily_start": "2013-02-07T00:00:00", "daily_end": "2022-04-24T00:00:00", "monthly_start": "2020-01-01T00:00:00", "monthly_end": "2022-01-01T00:00:00", "distance": 270734.96217848774}, {"id": "KALN0", "name": "Alton / Oakwood Heights", "country": "US", "region": "IL", "wmo": null, "icao": "KALN", "latitude": 38.8899, "longitude": -90.046, "elevation": 166.0, "timezone": "America/Chicago", "hourly_start": "2006-01-01T00:00:00", "hourly_end": "2025-11-22T00:00:00", "daily_start": "2011-05-03T00:00:00", "daily_end": "2022-04-24T00:00:00", "monthly_start": "2020-01-01T00:00:00", "monthly_end": "2022-01-01T00:00:00", "distance": 876842.9472965556}, {"id": "KARA0", "name": "New Iberia / New Horizon Mobile Home Park", "country": "US", "region": "LA", "wmo": null, "icao": "KARA", "latitude": 30.0378, "longitude": -91.8839, "elevation": 7.0, "timezone": "America/Chicago", "hourly_start": "1981-07-24T00:00:00", "hourly_end": "2025-11-22T00:00:00", "daily_start": "1998-05-09T00:00:00", "daily_end": "2022-04-24T00:00:00", "monthly_start": "2020-01-01T00:00:00", "monthly_end": "2022-01-01T00:00:00", "distance": 1579328.504593399}, {"id": "KUGN0", "name": "Chicago / Bancroft Corners", "country": "US", "region": "IL", "wmo": null, "icao": "KUGN", "latitude": 42.4222, "longitude": -87.8679, "elevation": 222.0, "timezone": "America/Chicago", "hourly_start": "2006-01-01T00:00:00", "hourly_end": "2025-11-22T00:00:00", "daily_start": "2006-01-01T00:00:00", "daily_end": "2022-04-24T00:00:00", "monthly_start": "2006-01-01T00:00:00", "monthly_end": "2021-01-01T00:00:00", "distance": 691959.3772886144}, {"id": "KOZA0", "name": "Ozona", "country": "US", "region": "TX", "wmo": null, "icao": "KOZA", "latitude": 30.7353, "longitude": -101.203, "elevation": 724.0, "timezone": "America/Chicago", "hourly_start": "2010-08-06T00:00:00", "hourly_end": "2025-11-22T00:00:00", "daily_start": "2010-08-07T00:00:00", "daily_end": "2022-04-24T00:00:00", "monthly_start": "2016-01-01T00:00:00", "monthly_end": "2022-01-01T00:00:00", "distance": 2192129.3641310404}, {"id": "M44D9", "name": "Monterey Regional Airport", "country": "US", "region": "CA", "wmo": null, "icao": "KMRY", "latitude": 36.5905, "longitude": -121.8487, "elevation": 77.0, "timezone": "America/Los_Angeles", "hourly_start": "2022-04-23T00:00:00", "hourly_end": "2025-11-22T00:00:00", "daily_start": "2022-04-24T00:00:00", "daily_end": "2022-04-24T00:00:00", "monthly_start": "", "monthly_end": "", "distance": 3632279.540550433}, {"id": "PFNO0", "name": "Noorvik / Andrewsville", "country": "US", "region": "AK", "wmo": null, "icao": "PFNO", "latitude": 38.8495, "longitude": -75.6128, "elevation": 20.0, "timezone": "America/New_York", "hourly_start": "2011-05-25T00:00:00", "hourly_end": "2025-11-22T00:00:00", "daily_start": "2011-05-26T00:00:00", "daily_end": "2022-04-20T00:00:00", "monthly_start": "2011-01-01T00:00:00", "monthly_end": "2022-01-01T00:00:00", "distance": 414832.85111042345}, {"id": "RGSKT", "name": "Tucumcari Municipal Airport", "country": "US", "region": "NM", "wmo": null, "icao": "KTCC", "latitude": 35.1805, "longitude": -103.6014, "elevation": 1239.0, "timezone": "America/Denver", "hourly_start": "2022-04-23T00:00:00", "hourly_end": "2025-11-22T00:00:00", "daily_start": "2022-04-24T00:00:00", "daily_end": "2022-04-24T00:00:00", "monthly_start": "", "monthly_end": "", "distance": 2147286.9400702827}, {"id": "KOTM0", "name": "Ottumwa / Keb (Historical)", "country": "US", "region": "IA", "wmo": null, "icao": "KOTM", "latitude": 41.1066, "longitude": -92.4479, "elevation": 258.0, "timezone": "America/Chicago", "hourly_start": "1973-01-01T00:00:00", "hourly_end": "2025-11-22T00:00:00", "daily_start": "1973-01-01T00:00:00", "daily_end": "2022-04-24T00:00:00", "monthly_start": "1975-01-01T00:00:00", "monthly_end": "2021-01-01T00:00:00", "distance": 1050264.3173547038}, {"id": "KTAD0", "name": "Trinidad / Hoehne", "country": "US", "region": "CO", "wmo": null, "icao": "KTAD", "latitude": 37.2594, "longitude": -104.3407, "elevation": 1756.0, "timezone": "America/Denver", "hourly_start": "1973-01-01T00:00:00", "hourly_end": "2025-11-22T00:00:00", "daily_start": "1973-01-01T00:00:00", "daily_end": "2022-04-24T00:00:00", "monthly_start": "2001-01-01T00:00:00", "monthly_end": "2022-01-01T00:00:00", "distance": 2130665.195915936}, {"id": "72271", "name": "Truth Or Consequences Muni", "country": "US", "region": "NM", "wmo": "72271", "icao": "KTCS", "latitude": 33.2333, "longitude": -107.2667, "elevation": 1478.0, "timezone": "America/Denver", "hourly_start": "1979-01-01T00:00:00", "hourly_end": "2025-11-22T00:00:00", "daily_start": "1950-05-26T00:00:00", "daily_end": "2025-12-05T00:00:00", "monthly_start": "1950-01-01T00:00:00", "monthly_end": "2022-01-01T00:00:00", "distance": 2543814.505105218}, {"id": "KGOK0", "name": "Guthrie", "country": "US", "region": "OK", "wmo": null, "icao": "KGOK", "latitude": 35.8513, "longitude": -97.4161, "elevation": 326.0, "timezone": "America/Chicago", "hourly_start": "2006-01-01T00:00:00", "hourly_end": "2025-11-22T00:00:00", "daily_start": "2006-01-01T00:00:00", "daily_end": "2022-04-24T00:00:00", "monthly_start": "2006-01-01T00:00:00", "monthly_end": "2022-01-01T00:00:00", "distance": 1603327.6955666784}, {"id": "F5PS0", "name": "Donalsonville Municipal Airport", "country": "US", "region": "GA", "wmo": null, "icao": "K17J", "latitude": 31.007, "longitude": -84.8776, "elevation": 45.0, "timezone": "America/New_York", "hourly_start": "2022-05-06T00:00:00", "hourly_end": "2025-11-12T00:00:00", "daily_start": "", "daily_end": "", "monthly_start": "", "monthly_end": "", "distance": 1137266.7465662507}, {"id": "72292", "name": "Avalon Catalina Airport", "country": "US", "region": "CA", "wmo": "72292", "icao": "KAVX", "latitude": 33.4, "longitude": -118.4167, "elevation": 488.0, "timezone": "America/Los_Angeles", "hourly_start": "1943-06-12T00:00:00", "hourly_end": "2025-11-21T00:00:00", "daily_start": "1943-06-13T00:00:00", "daily_end": "2025-12-05T00:00:00", "monthly_start": "1943-01-01T00:00:00", "monthly_end": "2022-01-01T00:00:00", "distance": 3475253.8126975214}, {"id": "KMKL0", "name": "Jackson / Oak Grove", "country": "US", "region": "TN", "wmo": null, "icao": "KMKL", "latitude": 35.5999, "longitude": -88.9156, "elevation": 132.0, "timezone": "America/Chicago", "hourly_start": "1973-01-01T00:00:00", "hourly_end": "2025-11-22T00:00:00", "daily_start": "1973-01-01T00:00:00", "daily_end": "2022-04-24T00:00:00", "monthly_start": "1999-01-01T00:00:00", "monthly_end": "2021-01-01T00:00:00", "distance": 948018.9865098153}, {"id": "KPTK0", "name": "Pontiac / Waterford", "country": "US", "region": "MI", "wmo": null, "icao": "KPTK", "latitude": 42.6656, "longitude": -83.4205, "elevation": 299.0, "timezone": "America/Detroit", "hourly_start": "2006-01-01T00:00:00", "hourly_end": "2025-11-22T00:00:00", "daily_start": "2006-01-01T00:00:00", "daily_end": "2022-04-24T00:00:00", "monthly_start": "2006-01-01T00:00:00", "monthly_end": "2022-01-01T00:00:00", "distance": 377322.6073055686}, {"id": "KTXK0", "name": "Texarkana / Rondo", "country": "US", "region": "AR", "wmo": null, "icao": "KTXK", "latitude": 33.4537, "longitude": -93.991, "elevation": 119.0, "timezone": "America/Chicago", "hourly_start": "1946-07-29T00:00:00", "hourly_end": "2025-11-22T00:00:00", "daily_start": "1946-07-30T00:00:00", "daily_end": "2022-04-24T00:00:00", "monthly_start": "1946-01-01T00:00:00", "monthly_end": "2022-01-01T00:00:00", "distance": 1463687.268142427}, {"id": "72225", "name": "Fort Benning", "country": "US", "region": "GA", "wmo": "72225", "icao": "KLSF", "latitude": 32.3333, "longitude": -84.8333, "elevation": 71.0, "timezone": "America/New_York", "hourly_start": "1939-05-01T00:00:00", "hourly_end": "2025-11-22T00:00:00", "daily_start": "1939-05-01T00:00:00", "daily_end": "2025-08-25T00:00:00", "monthly_start": "1939-01-01T00:00:00", "monthly_end": "2022-01-01T00:00:00", "distance": 999664.625488702}, {"id": "K40J0", "name": "Perry / Everetts Mobile Home Park", "country": "US", "region": "FL", "wmo": null, "icao": "K40J", "latitude": 30.0693, "longitude": -83.5806, "elevation": 13.0, "timezone": "America/New_York", "hourly_start": "2006-01-01T00:00:00", "hourly_end": "2020-05-21T00:00:00", "daily_start": "2006-01-01T00:00:00", "daily_end": "2020-05-20T00:00:00", "monthly_start": "2006-01-01T00:00:00", "monthly_end": "2014-01-01T00:00:00", "distance": 1197983.1242590637}, {"id": "KPDK0", "name": "Atlanta / Northwoods", "country": "US", "region": "GA", "wmo": null, "icao": "KPDK", "latitude": 33.8756, "longitude": -84.302, "elevation": 306.0, "timezone": "America/New_York", "hourly_start": "2006-01-01T00:00:00", "hourly_end": "2025-11-22T00:00:00", "daily_start": "2006-01-01T00:00:00", "daily_end": "2022-04-23T00:00:00", "monthly_start": "2006-01-01T00:00:00", "monthly_end": "2021-01-01T00:00:00", "distance": 823440.3859245508}, {"id": "KHSD0", "name": "Oklahoma City / Piedmont", "country": "US", "region": "OK", "wmo": null, "icao": "KHSD", "latitude": 35.6018, "longitude": -97.7062, "elevation": 364.0, "timezone": "America/Chicago", "hourly_start": "2020-01-14T00:00:00", "hourly_end": "2025-11-22T00:00:00", "daily_start": "2020-01-14T00:00:00", "daily_end": "2022-04-24T00:00:00", "monthly_start": "2020-01-01T00:00:00", "monthly_end": "2022-01-01T00:00:00", "distance": 1638568.535408619}, {"id": "72327", "name": "Nashville Airport", "country": "US", "region": "TN", "wmo": "72327", "icao": "KBNA", "latitude": 36.1167, "longitude": -86.6833, "elevation": 183.0, "timezone": "America/Chicago", "hourly_start": "1951-01-01T00:00:00", "hourly_end": "2025-11-22T00:00:00", "daily_start": "1948-01-01T00:00:00", "daily_end": "2025-12-05T00:00:00", "monthly_start": "1948-01-01T00:00:00", "monthly_end": "2022-01-01T00:00:00", "distance": 755843.1356080815}, {"id": "KIWI0", "name": "Wiscasset Airport / Montsweag", "country": "US", "region": "ME", "wmo": null, "icao": "KIWI", "latitude": 43.9614, "longitude": -69.7126, "elevation": 21.0, "timezone": "America/New_York", "hourly_start": "2006-01-01T00:00:00", "hourly_end": "2025-11-22T00:00:00", "daily_start": "2006-01-01T00:00:00", "daily_end": "2022-04-24T00:00:00", "monthly_start": "2006-01-01T00:00:00", "monthly_end": "2022-01-01T00:00:00", "distance": 932269.4586648176}, {"id": "K65S0", "name": "Bonners Ferry / Threemile Corner", "country": "US", "region": "ID", "wmo": null, "icao": "K65S", "latitude": 48.726, "longitude": -116.2952, "elevation": 712.0, "timezone": "America/Los_Angeles", "hourly_start": "2011-01-18T00:00:00", "hourly_end": "2025-11-22T00:00:00", "daily_start": "2011-01-19T00:00:00", "daily_end": "2022-03-07T00:00:00", "monthly_start": "2011-01-01T00:00:00", "monthly_end": "2021-01-01T00:00:00", "distance": 2986434.0348608377}, {"id": "KLOT0", "name": "Joliet / Lockport / Nottingham Ridge", "country": "US", "region": "IL", "wmo": null, "icao": "KLOT", "latitude": 41.6081, "longitude": -88.0962, "elevation": 207.0, "timezone": "America/Chicago", "hourly_start": "2006-01-23T00:00:00", "hourly_end": "2025-11-22T00:00:00", "daily_start": "2008-04-04T00:00:00", "daily_end": "2022-04-19T00:00:00", "monthly_start": "2011-01-01T00:00:00", "monthly_end": "2021-01-01T00:00:00", "distance": 691537.0926257442}], "data-0bd75f5efa3f835674104223ffc8e143": [{"station_id": "KSEE0", "name": "San Diego / Town And Country Mobile Home Park", "longitude": -116.9724, "latitude": 32.8262, "accuracy": 0.6656073446327684, "samples": 8496}, {"station_id": "KVER0", "name": "Boonville / Windsor Place", "longitude": -92.6827, "latitude": 38.9467, "accuracy": 0.568283494231222, "samples": 8494}, {"station_id": "KGXF0", "name": "Gila Bend", "longitude": -112.7199, "latitude": 32.8875, "accuracy": 0.7517363154796939, "samples": 8495}, {"station_id": "KMYL0", "name": "Mc Call", "longitude": -116.1017, "latitude": 44.8887, "accuracy": 0.6142251530852567, "samples": 8492}, {"station_id": "KDWX0", "name": "Dixon", "longitude": -107.4925, "latitude": 41.0374, "accuracy": 0.6231167608286252, "samples": 8496}, {"station_id": "72438", "name": "Indianapolis International  Airport", "longitude": -86.1167, "latitude": 39.7167, "accuracy": 0.5904097047379263, "samples": 8738}, {"station_id": "KUXL0", "name": "Southland Field-Sulphur / Moss Lake", "longitude": -93.3762, "latitude": 30.1314, "accuracy": 0.5975997176138369, "samples": 8499}, {"station_id": "KPNC0", "name": "Ponca City", "longitude": -97.0998, "latitude": 36.7319, "accuracy": 0.6376692171865803, "samples": 8495}, {"station_id": "KRCZ0", "name": "Rockingham / Highland Pines", "longitude": -79.7596, "latitude": 34.8913, "accuracy": 0.6142251530852567, "samples": 8492}, {"station_id": "KLAA0", "name": "Lamar / Beta", "longitude": -102.6885, "latitude": 38.0697, "accuracy": 0.6244114877589454, "samples": 8496}]}}